City_ID,City,Lat,Lng,Max Temp,Humidity,Cloudiness,Wind Speed,Country,Date
0,albany,42.6001,-73.9662,8.230000000000018,56,100,0.45,US,2023-04-18
1,ushuaia,-54.8,-68.3,5.810000000000002,70,100,1.54,AR,2023-04-18
2,waitangi,-43.9535,-176.5597,17.120000000000005,85,100,4.02,NZ,2023-04-18
3,grytviken,-54.2811,-36.5092,3.240000000000009,89,91,0.52,GS,2023-04-18
4,port-aux-francais,-49.35,70.2167,5.82000000000005,77,64,13.44,TF,2023-04-18
5,west island,-12.1568,96.8225,26.99000000000001,78,40,3.09,CC,2023-04-18
6,zvishavane,-20.3267,30.0665,13.980000000000018,79,0,0.37,ZW,2023-04-18
7,adamstown,-25.066,-130.1015,24.82000000000005,74,20,6.04,PN,2023-04-18
8,kodiak,57.79,-152.4072,4.730000000000018,42,0,5.14,US,2023-04-18
9,atafu village,-8.5421,-172.5159,28.200000000000045,73,75,2.44,TK,2023-04-18
10,klyuchi,52.2667,79.1667,-5.5,92,100,5.77,RU,2023-04-18
11,balsas,-7.5325,-46.0356,25.650000000000034,77,100,2.26,BR,2023-04-18
12,port-vila,-17.7338,168.3219,28.78000000000003,61,40,5.14,VU,2023-04-18
13,ribeira grande,38.5167,-28.7,14.32000000000005,78,71,1.79,PT,2023-04-18
14,puerto natales,-51.7236,-72.4875,8.439999999999998,89,100,4.02,CL,2023-04-18
15,la'ie,21.6477,-157.9253,26.980000000000018,69,98,0.45,US,2023-04-18
16,blackmans bay,-43.0167,147.3167,13.07000000000005,78,69,4.08,AU,2023-04-18
17,qaqortoq,60.7167,-46.0333,-0.6099999999999568,92,21,0.85,GL,2023-04-18
18,suomussalmi,64.8869,28.9078,1.8900000000000432,76,100,0.92,FI,2023-04-18
19,lihue,21.9789,-159.3672,22.980000000000018,86,100,6.69,US,2023-04-18
20,suibara,37.8333,139.2333,12.950000000000045,88,40,2.57,JP,2023-04-18
21,port arthur,38.8,121.2667,12.120000000000005,77,1,3.17,CN,2023-04-18
22,thunder bay,48.4001,-89.3168,5.990000000000009,49,75,5.66,CA,2023-04-18
23,port mathurin,-19.6833,63.4167,26.30000000000001,75,28,8.13,MU,2023-04-18
24,shingu,33.7333,135.9833,18.460000000000036,90,100,2.26,JP,2023-04-18
25,castillos,-34.1667,-53.8333,11.620000000000005,66,27,4.28,UY,2023-04-18
26,hammerfest,70.6634,23.6821,6.25,93,75,5.66,NO,2023-04-18
27,flying fish cove,-10.4217,105.6791,27.350000000000023,76,49,7.03,CX,2023-04-18
28,constantia,44.1833,28.65,10.390000000000043,88,100,4.41,RO,2023-04-18
29,hawaiian paradise park,19.5933,-154.9731,27.730000000000018,78,0,8.75,US,2023-04-18
30,kudahuvadhoo,2.6708,72.8944,28.29000000000002,71,79,0.65,MV,2023-04-18
31,merizo village,13.2658,144.6691,29.310000000000002,81,47,9.46,GU,2023-04-18
32,san patricio,28.017,-97.5169,24.910000000000025,82,90,8.07,US,2023-04-18
33,bethel,41.3712,-73.414,10.270000000000039,53,100,5.66,US,2023-04-18
34,meadow lake,34.8014,-106.5436,25.160000000000025,8,62,10.53,US,2023-04-18
35,kavaratti,10.5669,72.642,28.110000000000014,74,14,3.86,IN,2023-04-18
36,berd,40.8815,45.3899,7.830000000000041,86,83,1.01,AM,2023-04-18
37,tosontsengel,48.7567,98.2839,-7.71999999999997,41,43,3.57,MN,2023-04-18
38,ilulissat,69.2167,-51.1,-3.9899999999999523,93,100,4.63,GL,2023-04-18
39,bilibino,68.0546,166.4372,-5.029999999999973,81,100,1.29,RU,2023-04-18
40,iqaluit,63.7506,-68.5145,-14.149999999999977,77,75,5.14,CA,2023-04-18
41,chardara,41.2547,67.9692,5.810000000000002,57,0,3.72,KZ,2023-04-18
42,crane,31.3974,-102.3501,31.32000000000005,5,4,8.86,US,2023-04-18
43,manta,-0.95,-80.7333,28.879999999999995,74,40,3.09,EC,2023-04-18
44,jaisinghnagar,23.7,81.3833,27.160000000000025,21,13,2.16,IN,2023-04-18
45,paredon,16.0333,-93.8667,30.430000000000007,59,42,3.51,MX,2023-04-18
46,margaret river,-33.95,115.0667,9.960000000000036,85,0,3.69,AU,2023-04-18
47,quelimane,-17.8786,36.8883,22.970000000000027,88,0,2.06,MZ,2023-04-18
48,kuopio,62.8924,27.677,1.9700000000000273,86,0,2.57,FI,2023-04-18
49,ifo,6.8144,3.1958,28.79000000000002,83,64,1.34,NG,2023-04-18
50,port saint john's,-31.6229,29.5448,19.840000000000032,78,0,2.0,ZA,2023-04-18
51,lagos,6.5833,3.75,29.180000000000007,88,67,1.56,NG,2023-04-18
52,maintirano,-18.0667,44.0167,25.650000000000034,86,1,4.53,MG,2023-04-18
53,carutapera,-1.195,-46.02,24.07000000000005,93,89,2.0,BR,2023-04-18
54,keflavik,64.0049,-22.5624,9.950000000000045,100,100,4.63,IS,2023-04-18
55,invercargill,-46.4,168.35,11.680000000000007,82,99,0.89,NZ,2023-04-18
56,al bayda,32.7627,21.7551,9.32000000000005,94,10,3.72,LY,2023-04-18
57,port elizabeth,-33.918,25.5701,17.950000000000045,97,20,0.0,ZA,2023-04-18
58,ketchikan,55.3422,-131.6461,10.260000000000048,43,20,4.12,US,2023-04-18
59,stanley,54.868,-1.6985,6.050000000000011,94,20,2.06,GB,2023-04-18
60,tabuk,17.4189,121.4443,24.810000000000002,83,17,1.58,PH,2023-04-18
61,goundam,16.4145,-3.6708,29.879999999999995,10,56,4.22,ML,2023-04-18
62,camana,-16.6228,-72.7111,21.350000000000023,81,87,3.63,PE,2023-04-18
63,al bardiyah,31.7561,25.0865,15.950000000000045,75,92,5.35,LY,2023-04-18
64,jurilovca,44.7667,28.8667,10.050000000000011,86,100,5.86,RO,2023-04-18
65,college,64.8569,-147.8028,-1.6200000000000045,58,100,6.17,US,2023-04-18
66,georgetown,5.4112,100.3354,26.960000000000036,93,20,1.03,MY,2023-04-18
67,piracuruca,-3.9281,-41.7092,23.960000000000036,95,99,1.66,BR,2023-04-18
68,vorgashor,67.5833,63.95,-21.20999999999998,100,32,3.1,RU,2023-04-18
69,thompson,55.7435,-97.8558,1.0900000000000318,32,20,4.63,CA,2023-04-18
70,edinburgh of the seven seas,-37.0676,-12.3116,15.400000000000034,61,96,6.47,SH,2023-04-18
71,kadnikov,59.5022,40.338,2.900000000000034,94,56,2.51,RU,2023-04-18
72,avarua,-21.2078,-159.775,23.03000000000003,94,75,6.17,CK,2023-04-18
73,olonkinbyen,70.9221,-8.7187,0.9200000000000159,94,91,6.05,SJ,2023-04-18
74,kingston,17.997,-76.7936,27.53000000000003,80,75,4.63,JM,2023-04-18
75,nova sintra,14.8667,-24.7167,20.160000000000025,78,72,7.66,CV,2023-04-18
76,boca suno,-0.7167,-77.1333,24.700000000000045,93,97,1.44,EC,2023-04-18
77,papatowai,-46.5619,169.4708,13.330000000000041,83,95,4.36,NZ,2023-04-18
78,vadso,70.0744,29.7487,4.490000000000009,81,100,6.17,NO,2023-04-18
79,sedziszow,50.5659,20.0556,10.04000000000002,82,99,4.16,PL,2023-04-18
80,khamis mushait,18.3064,42.7292,16.340000000000032,67,0,0.0,SA,2023-04-18
81,greymouth,-42.4667,171.2,16.850000000000023,78,68,1.89,NZ,2023-04-18
82,glace bay,46.1969,-59.957,3.830000000000041,95,100,4.63,CA,2023-04-18
83,hamilton,39.1834,-84.5333,17.689999999999998,32,0,5.14,US,2023-04-18
84,tiksi,71.6872,128.8694,-17.0,100,100,2.75,RU,2023-04-18
85,orchard homes,46.8633,-114.0484,5.330000000000041,68,100,8.49,US,2023-04-18
86,kindia,10.0569,-12.8658,25.120000000000005,74,99,1.32,GN,2023-04-18
87,minas de marcona,-15.2119,-75.1103,16.660000000000025,77,76,7.02,PE,2023-04-18
88,mossel bay,-34.1831,22.146,15.960000000000036,86,2,2.79,ZA,2023-04-18
89,yellowknife,62.456,-114.3525,7.2900000000000205,39,40,8.23,CA,2023-04-18
90,lebu,-37.6167,-73.65,13.370000000000005,89,100,0.85,CL,2023-04-18
91,udachny,66.4167,112.4,-6.96999999999997,67,100,4.3,RU,2023-04-18
92,cooma,-36.2333,149.1333,13.189999999999998,61,2,1.18,AU,2023-04-18
93,senahu,15.4,-89.8333,23.660000000000025,49,36,2.1,GT,2023-04-18
94,dunedin,-45.8742,170.5036,17.110000000000014,69,45,0.89,NZ,2023-04-18
95,la ronge,55.1001,-105.2842,2.140000000000043,41,75,8.75,CA,2023-04-18
96,susanville,40.4163,-120.653,5.910000000000025,40,40,5.36,US,2023-04-18
97,nemuro,43.3236,145.575,4.2000000000000455,82,99,1.92,JP,2023-04-18
98,santa terezinha,-29.9002,-50.0904,18.810000000000002,72,28,3.76,BR,2023-04-18
99,port douglas,-16.4833,145.4667,25.730000000000018,77,83,3.89,AU,2023-04-18
100,isafjordur,66.0755,-23.124,7.3700000000000045,93,100,2.8,IS,2023-04-18
101,holualoa,19.6228,-155.9522,25.99000000000001,67,75,3.6,US,2023-04-18
102,kununurra,-15.7667,128.7333,21.99000000000001,64,18,1.54,AU,2023-04-18
103,susuman,62.7833,148.1667,-10.439999999999998,90,87,1.65,RU,2023-04-18
104,brookings,44.3114,-96.7984,16.189999999999998,35,0,10.29,US,2023-04-18
105,kolonia,50.9333,6.95,12.75,67,100,3.6,DE,2023-04-18
106,badiyah,22.45,58.8,24.860000000000014,62,89,2.1,OM,2023-04-18
107,saudarkrokur,65.7461,-19.6394,8.57000000000005,87,100,2.52,IS,2023-04-18
108,narasannapeta,18.4167,84.05,27.100000000000023,72,24,3.77,IN,2023-04-18
109,wudil,11.8107,8.8451,30.379999999999995,27,33,0.36,NG,2023-04-18
110,samalut,28.3121,30.7101,25.230000000000018,31,36,4.39,EG,2023-04-18
111,lubin,51.4009,16.2015,9.840000000000032,89,100,4.4,PL,2023-04-18
112,longyearbyen,78.2186,15.6401,-0.08999999999997499,93,75,0.0,SJ,2023-04-18
113,hermanus,-34.4187,19.2345,15.450000000000045,78,62,3.26,ZA,2023-04-18
114,yanbu,24.0891,38.0637,26.02000000000004,73,20,1.54,SA,2023-04-18
115,ornskoldsvik,63.2909,18.7153,1.5300000000000296,86,100,1.03,SE,2023-04-18
116,north bend,43.4065,-124.2243,9.020000000000039,85,100,6.69,US,2023-04-18
117,petropavlovsk-kamchatsky,53.0452,158.6483,2.330000000000041,81,75,5.0,RU,2023-04-18
118,kayangel,8.0823,134.7173,28.010000000000048,78,83,5.59,PW,2023-04-18
119,laojunmiao,39.8333,97.7333,2.9700000000000273,40,100,3.34,CN,2023-04-18
120,mount isa,-20.7333,139.5,21.870000000000005,60,100,5.66,AU,2023-04-18
121,constitucion,-35.3333,-72.4167,13.57000000000005,68,50,5.71,CL,2023-04-18
122,port alfred,-33.5906,26.891,19.470000000000027,84,3,3.08,ZA,2023-04-18
123,lompoc,34.6391,-120.4579,19.32000000000005,62,40,9.83,US,2023-04-18
124,reggane,26.7158,0.1714,29.54000000000002,8,58,5.09,DZ,2023-04-18
125,kampong thom,12.7111,104.8887,27.110000000000014,78,22,3.13,KH,2023-04-18
126,zeya,53.75,127.2667,-1.9799999999999613,60,35,2.07,RU,2023-04-18
127,bredasdorp,-34.5322,20.0403,14.460000000000036,91,55,1.44,ZA,2023-04-18
128,yaring,6.8662,101.3689,25.760000000000048,86,100,1.59,TH,2023-04-18
129,primorsko-akhtarsk,46.0497,38.1747,11.110000000000014,84,90,5.63,RU,2023-04-18
130,claremore,36.3126,-95.6161,25.08000000000004,60,1,9.4,US,2023-04-18
131,boulder city,35.9786,-114.8325,25.360000000000014,6,0,10.29,US,2023-04-18
132,khandyga,62.6667,135.6,-3.589999999999975,86,100,1.89,RU,2023-04-18
133,puerto lempira,15.2667,-83.7667,29.08000000000004,70,20,4.12,HN,2023-04-18
134,whitehorse,60.7161,-135.0538,5.050000000000011,93,100,1.79,CA,2023-04-18
135,wotje,9.4543,170.2367,26.850000000000023,79,100,8.12,MH,2023-04-18
136,bridgewater,44.3835,-64.5155,12.840000000000032,60,41,4.63,CA,2023-04-18
137,namibe,-15.1961,12.1522,25.890000000000043,69,52,1.77,AO,2023-04-18
138,mountain home,43.133,-115.6912,4.680000000000007,63,100,8.23,US,2023-04-18
139,colonia,50.9333,6.95,12.75,67,100,3.6,DE,2023-04-18
140,codrington,-38.2667,141.9667,13.680000000000007,60,70,7.23,AU,2023-04-18
141,laguna,38.421,-121.4238,18.02000000000004,32,40,3.6,US,2023-04-18
142,tralee,52.2704,-9.7026,6.760000000000048,91,0,2.88,IE,2023-04-18
143,portales,34.1862,-103.3344,29.07000000000005,6,0,8.33,US,2023-04-18
144,tazovsky,67.4667,78.7,-12.299999999999955,96,90,3.58,RU,2023-04-18
145,island harbour,50.724,-1.2758,8.879999999999995,86,66,2.24,GB,2023-04-18
146,ar raqqah,35.95,39.0167,19.720000000000027,58,3,0.05,SY,2023-04-18
147,san andres,12.5847,-81.7006,28.010000000000048,69,40,3.6,CO,2023-04-18
148,coahuayana de hidalgo,18.7,-103.6583,30.310000000000002,43,62,3.22,MX,2023-04-18
149,holmsund,63.706,20.3641,0.5300000000000296,86,0,0.0,SE,2023-04-18
150,port lincoln,-34.7333,135.8667,15.03000000000003,58,67,5.03,AU,2023-04-18
151,talnakh,69.4865,88.3972,-20.049999999999983,87,26,2.02,RU,2023-04-18
152,sitia,35.2,26.0986,15.550000000000011,79,1,2.2,GR,2023-04-18
153,emmett,43.8735,-116.4993,6.550000000000011,68,100,1.34,US,2023-04-18
154,fale old settlement,-9.3852,-171.2468,28.27000000000004,73,77,3.19,TK,2023-04-18
155,abu al matamir,30.9102,30.1744,19.230000000000018,79,77,1.38,EG,2023-04-18
156,puerto ayora,-0.7393,-90.3518,26.970000000000027,92,92,1.34,EC,2023-04-18
157,aasiaat,68.7098,-52.8699,-8.120000000000005,93,100,3.57,GL,2023-04-18
158,mount pearl,47.5166,-52.7813,-1.589999999999975,93,100,7.2,CA,2023-04-18
159,ta`u,-14.2336,-169.5144,26.340000000000032,83,100,8.59,AS,2023-04-18
160,kenora,49.8167,-94.4337,8.54000000000002,19,40,4.12,CA,2023-04-18
161,saipan,15.1355,145.701,29.390000000000043,100,20,8.75,MP,2023-04-18
162,prado,-17.3411,-39.2208,26.189999999999998,86,9,5.09,BR,2023-04-18
163,cabo san lucas,22.8909,-109.9124,29.78000000000003,53,40,4.63,MX,2023-04-18
164,igarka,67.4667,86.5833,-20.819999999999965,100,34,2.71,RU,2023-04-18
165,gillette,44.2911,-105.5022,5.510000000000048,87,100,7.72,US,2023-04-18
166,new norfolk,-42.7826,147.0587,13.720000000000027,69,75,2.24,AU,2023-04-18
167,bowen,-20.0167,148.2333,25.110000000000014,72,0,5.36,AU,2023-04-18
168,olinda,-8.0089,-34.8553,27.850000000000023,74,40,2.06,BR,2023-04-18
169,santiago de cao,-7.9589,-79.2392,27.07000000000005,78,53,5.14,PE,2023-04-18
170,san fernando,15.0286,120.6898,28.850000000000023,78,15,0.9,PH,2023-04-18
171,devils lake,48.1128,-98.8651,7.189999999999998,56,75,7.72,US,2023-04-18
172,pudozh,61.8099,36.5345,0.20000000000004547,95,98,1.75,RU,2023-04-18
173,polyarnyy,69.1989,33.4478,2.400000000000034,83,100,8.01,RU,2023-04-18
174,anadyr,64.75,177.4833,-0.7199999999999704,80,20,8.0,RU,2023-04-18
175,tual,-5.6667,132.75,28.07000000000005,72,94,2.13,ID,2023-04-18
176,sirte,31.2089,16.5887,15.879999999999995,70,0,4.09,LY,2023-04-18
177,shiprock,36.7855,-108.687,24.189999999999998,9,22,14.19,US,2023-04-18
178,cacoal,-11.4386,-61.4472,24.29000000000002,95,100,1.25,BR,2023-04-18
179,sa kaeo,13.75,102.3333,26.850000000000023,80,25,3.43,TH,2023-04-18
180,sinabang,2.4803,96.3801,26.77000000000004,81,93,1.09,ID,2023-04-18
181,lobujya,27.95,86.8167,-11.439999999999998,32,22,2.81,NP,2023-04-18
182,nizhneangarsk,55.7833,109.55,-4.649999999999977,73,100,3.94,RU,2023-04-18
183,sisimiut,66.9395,-53.6735,-7.2999999999999545,85,98,4.15,GL,2023-04-18
184,okha,53.5739,142.9478,1.6200000000000045,80,17,0.67,RU,2023-04-18
185,enewetak,11.3474,162.3373,26.920000000000016,77,100,9.8,MH,2023-04-18
186,puerto baquerizo moreno,-0.9,-89.6,26.650000000000034,78,55,2.0,EC,2023-04-18
187,nadym,65.5333,72.5167,-11.349999999999966,89,100,4.58,RU,2023-04-18
188,onokhoy,51.932,108.0747,-2.1399999999999864,75,100,7.91,RU,2023-04-18
189,angaur state,6.906,134.13,28.200000000000045,74,60,3.3,PW,2023-04-18
190,cole harbour,44.6724,-63.4751,7.8700000000000045,91,100,4.12,CA,2023-04-18
191,luumaki,60.9262,27.5814,4.060000000000002,87,23,3.98,FI,2023-04-18
192,raduzhny,62.0961,77.475,-11.129999999999995,95,99,3.86,RU,2023-04-18
193,wailua homesteads,22.0669,-159.378,22.640000000000043,89,100,6.69,US,2023-04-18
194,alappuzha,9.49,76.3264,27.32000000000005,80,6,1.88,IN,2023-04-18
195,buenaventura,3.8801,-77.0312,26.129999999999995,86,100,0.75,CO,2023-04-18
196,sitka,57.0531,-135.33,7.939999999999998,66,0,3.09,US,2023-04-18
197,el calafate,-50.3408,-72.2768,9.560000000000002,79,99,4.27,AR,2023-04-18
198,bac kan,22.1333,105.8333,24.200000000000045,96,96,0.35,VN,2023-04-18
199,haiku-pauwela,20.9219,-156.3051,28.010000000000048,54,20,7.72,US,2023-04-18
200,guacamayas,18.0167,-102.2167,28.960000000000036,56,23,4.4,MX,2023-04-18
201,shohimardon,39.9839,71.8028,-1.5699999999999932,78,85,1.3,UZ,2023-04-18
202,bandarbeyla,9.4942,50.8122,27.08000000000004,72,10,3.08,SO,2023-04-18
203,jwaneng,-24.6004,24.7303,16.870000000000005,31,0,2.67,BW,2023-04-18
204,mollerussa,41.6333,0.9,10.650000000000034,82,22,0.89,ES,2023-04-18
205,kalmunai,7.4167,81.8167,25.82000000000005,82,24,2.15,LK,2023-04-18
206,khalkhal,37.6189,48.5258,8.770000000000039,63,8,1.35,IR,2023-04-18
207,rayachoti,14.05,78.75,25.02000000000004,52,3,2.1,IN,2023-04-18
208,bor,56.3567,44.0669,0.9600000000000364,80,32,1.11,RU,2023-04-18
209,weyburn,49.6668,-103.8511,5.1200000000000045,56,100,11.83,CA,2023-04-18
210,whitecourt,54.1502,-115.6855,12.580000000000041,14,75,7.2,CA,2023-04-18
211,tura,25.5198,90.2201,25.439999999999998,68,4,3.23,IN,2023-04-18
212,afaahiti,-17.75,-149.2833,28.930000000000007,75,62,6.25,PF,2023-04-18
213,cam ranh,11.9214,109.1591,26.980000000000018,74,20,5.14,VN,2023-04-18
214,halfway,39.6207,-77.7589,15.180000000000007,44,0,4.12,US,2023-04-18
215,chibougamau,49.9168,-74.3659,2.7900000000000205,81,100,1.54,CA,2023-04-18
216,iskateley,67.6803,53.1512,-9.310000000000002,98,81,3.42,RU,2023-04-18
217,mosjoen,65.836,13.1908,7.590000000000032,75,100,1.03,NO,2023-04-18
218,barcelos,41.5388,-8.6151,18.80000000000001,59,95,1.09,PT,2023-04-18
219,weno,7.4515,151.8468,27.83000000000004,79,100,8.62,FM,2023-04-18
220,amurzet,47.6967,131.0981,5.7000000000000455,68,100,5.02,RU,2023-04-18
221,conduaga,8.862,117.4893,26.700000000000045,78,20,1.31,PH,2023-04-18
222,bodaybo,57.8506,114.1933,-5.17999999999995,93,100,0.51,RU,2023-04-18
223,madang,-5.2246,145.7966,26.860000000000014,82,100,1.1,PG,2023-04-18
224,kiama,-34.6833,150.8667,22.54000000000002,69,84,0.45,AU,2023-04-18
225,battambang,13.1027,103.1982,27.360000000000014,78,12,2.09,KH,2023-04-18
226,yulinshi,38.2906,109.7494,16.700000000000045,56,9,7.95,CN,2023-04-18
227,twon-brass,4.3151,6.2418,28.03000000000003,80,72,2.88,NG,2023-04-18
228,carnarvon,-24.8667,113.6333,22.210000000000036,37,6,7.16,AU,2023-04-18
229,tolanaro,-25.0319,46.9987,23.04000000000002,94,40,4.12,MG,2023-04-18
230,touros,-5.1989,-35.4608,26.010000000000048,84,79,3.48,BR,2023-04-18
231,aksuat,48.7167,83.7,-3.609999999999957,51,23,3.18,KZ,2023-04-18
232,lima,-12.0432,-77.0282,26.060000000000002,72,0,7.2,PE,2023-04-18
233,yigo village,13.5361,144.8886,28.620000000000005,71,40,8.23,GU,2023-04-18
234,tsiombe,-25.3,45.4833,22.720000000000027,82,4,6.28,MG,2023-04-18
235,kirensk,57.7853,108.1119,-7.1299999999999955,71,100,4.29,RU,2023-04-18
236,horta,38.5333,-28.6333,13.900000000000034,78,72,1.34,PT,2023-04-18
237,muli,2.9167,73.5667,28.420000000000016,71,99,0.67,MV,2023-04-18
238,darwin,-12.4611,130.8418,23.360000000000014,73,0,2.57,AU,2023-04-18
239,vijayapuri,11.2333,77.5,25.930000000000007,64,2,0.15,IN,2023-04-18
240,vacha,55.8008,42.7706,5.010000000000048,88,49,1.99,RU,2023-04-18
241,christchurch,-43.5333,172.6333,16.379999999999995,84,75,4.12,NZ,2023-04-18
242,chernyshevskiy,63.0128,112.4714,-13.139999999999986,93,93,0.71,RU,2023-04-18
243,badger,64.8,-147.5333,-1.3799999999999955,55,75,6.17,US,2023-04-18
244,palmer,42.1584,-72.3287,10.840000000000032,55,75,3.6,US,2023-04-18
245,mulanje,-16.0316,35.5,17.110000000000014,94,19,1.83,MW,2023-04-18
246,pasuquin,18.3328,120.6177,26.970000000000027,83,75,1.54,PH,2023-04-18
247,tamanrasset,22.785,5.5228,22.950000000000045,9,0,6.69,DZ,2023-04-18
248,jamestown,42.097,-79.2353,2.6200000000000045,90,100,3.6,US,2023-04-18
249,kurud,20.8322,81.7214,28.27000000000004,21,66,1.0,IN,2023-04-18
250,lae,-6.7221,146.9847,28.090000000000032,74,77,1.33,PG,2023-04-18
251,la mira,18.035,-102.3266,29.010000000000048,56,25,4.3,MX,2023-04-18
252,leesville,31.1435,-93.261,22.24000000000001,60,100,4.63,US,2023-04-18
253,pambujan,12.5642,124.9276,25.860000000000014,90,94,1.81,PH,2023-04-18
254,howrah,22.5892,88.3103,30.0,89,40,3.09,IN,2023-04-18
255,meridian,43.6121,-116.3915,6.2000000000000455,58,20,6.71,US,2023-04-18
256,ust-nera,64.5667,143.2,-8.329999999999984,91,94,1.09,RU,2023-04-18
257,vilyuchinsk,52.9306,158.4028,3.150000000000034,100,100,4.77,RU,2023-04-18
258,st. john's,47.5649,-52.7093,-1.1299999999999955,93,100,7.2,CA,2023-04-18
259,colac,-38.3333,143.5833,12.32000000000005,81,83,3.89,AU,2023-04-18
260,rockland,41.1668,-74.0496,10.470000000000027,51,94,0.89,US,2023-04-18
261,utrik,11.2278,169.8474,26.340000000000032,81,99,8.5,MH,2023-04-18
262,sinop,41.7711,34.8709,12.629999999999995,71,99,3.95,TR,2023-04-18
263,kismayo,-0.3582,42.5454,27.400000000000034,81,83,4.8,SO,2023-04-18
264,iztapalapa,19.3511,-99.0519,26.090000000000032,24,75,5.14,MX,2023-04-18
265,newman,37.3138,-121.0208,17.720000000000027,36,98,2.24,US,2023-04-18
266,custodia,-8.0875,-37.6431,23.720000000000027,80,100,2.99,BR,2023-04-18
267,douglas,41.3,-96.167,22.140000000000043,41,0,9.77,US,2023-04-18
268,chiriguana,9.3624,-73.6031,26.660000000000025,82,76,1.63,CO,2023-04-18
269,sipote,47.4667,27.2167,9.350000000000023,93,100,3.64,RO,2023-04-18
270,tahla,34.0485,-4.428,18.590000000000032,44,79,3.04,MA,2023-04-18
271,kirakira,-10.4544,161.9205,28.640000000000043,70,92,1.42,SB,2023-04-18
272,tsaratanana,-16.7833,47.65,22.80000000000001,82,49,3.8,MG,2023-04-18
273,shaowu,27.3409,117.4831,20.350000000000023,99,100,0.58,CN,2023-04-18
274,port loko,8.7667,-12.7833,26.82000000000005,78,87,0.99,SL,2023-04-18
275,sampit,-2.5333,112.95,24.25,95,53,0.06,ID,2023-04-18
276,fort mcmurray,56.7268,-111.381,3.7700000000000387,81,100,2.06,CA,2023-04-18
277,rehoboth,-23.3167,17.0833,20.220000000000027,44,93,1.67,NA,2023-04-18
278,garissa,-0.4536,39.6401,26.230000000000018,75,96,6.3,KE,2023-04-18
279,waddan,29.1614,16.139,16.010000000000048,46,1,4.17,LY,2023-04-18
280,dubbo,-32.25,148.6167,18.07000000000005,68,40,3.6,AU,2023-04-18
281,golbasi,37.7836,37.6367,13.300000000000011,74,8,0.61,TR,2023-04-18
282,karema,-6.8205,30.4389,20.710000000000036,93,100,2.21,TZ,2023-04-18
283,fortuna,40.5982,-124.1573,11.629999999999995,49,100,3.13,US,2023-04-18
284,fengxiang,47.5833,130.8333,6.07000000000005,63,99,5.2,CN,2023-04-18
285,puerto armuelles,8.2833,-82.8667,30.99000000000001,78,53,1.89,PA,2023-04-18
286,zehdenick,52.9785,13.3317,6.270000000000039,81,60,5.04,DE,2023-04-18
287,kuanda,56.3161,116.0806,-7.060000000000002,82,82,0.73,RU,2023-04-18
288,howard springs,-12.497,131.047,23.32000000000005,75,19,2.5,AU,2023-04-18
289,punta arenas,-53.15,-70.9167,8.060000000000002,87,100,4.12,CL,2023-04-18
290,aras-asan,8.8908,126.3033,26.52000000000004,78,73,1.61,PH,2023-04-18
291,dudinka,69.4058,86.1778,-23.629999999999967,99,7,2.66,RU,2023-04-18
292,arraial do cabo,-22.9661,-42.0278,23.980000000000018,94,75,1.54,BR,2023-04-18
293,illizi,26.4833,8.4667,23.410000000000025,17,0,3.69,DZ,2023-04-18
294,victorica,-36.2151,-65.4359,14.939999999999998,49,98,5.77,AR,2023-04-18
295,hasaki,35.7333,140.8333,16.220000000000027,76,8,2.62,JP,2023-04-18
296,mata-utu,-13.2816,-176.1745,28.57000000000005,72,91,4.26,WF,2023-04-18
297,dryden,49.7833,-92.7503,6.160000000000025,19,0,3.09,CA,2023-04-18
298,chokwe,-24.5333,32.9833,18.430000000000007,91,2,2.26,MZ,2023-04-18
299,stanovoye,52.7638,38.3582,7.670000000000016,62,100,3.0,RU,2023-04-18
300,boqueirao,-7.5,-36.1333,24.75,94,80,2.45,BR,2023-04-18
301,labrador city,52.9463,-66.9114,1.9500000000000455,93,100,3.09,CA,2023-04-18
302,san rafael del sur,11.8485,-86.4384,32.54000000000002,38,100,3.14,NI,2023-04-18
303,berdigestyakh,62.0989,126.6992,-5.8700000000000045,94,97,2.02,RU,2023-04-18
304,caleta de carquin,-11.0925,-77.6267,24.620000000000005,77,61,5.43,PE,2023-04-18
305,uturoa,-16.7333,-151.4333,28.260000000000048,76,68,6.27,PF,2023-04-18
306,pingnan,23.5543,110.3976,24.08000000000004,95,52,0.57,CN,2023-04-18
307,waingapu,-9.6567,120.2641,25.620000000000005,86,68,3.96,ID,2023-04-18
308,coronel dorrego,-38.7187,-61.2873,12.850000000000023,50,97,4.2,AR,2023-04-18
309,askoy,60.4092,5.226,7.7900000000000205,68,0,0.0,NO,2023-04-18
310,meybod,32.2501,54.0166,18.010000000000048,28,0,3.08,IR,2023-04-18
311,yuzhno-kurilsk,44.0306,145.8556,5.240000000000009,69,93,1.31,RU,2023-04-18
312,coquimbo,-29.9533,-71.3436,14.850000000000023,82,0,2.06,CL,2023-04-18
313,axim,4.8699,-2.2405,27.03000000000003,86,100,1.93,GH,2023-04-18
314,thurso,58.5927,-3.5259,7.140000000000043,76,23,5.88,GB,2023-04-18
315,san ignacio,17.1561,-89.0714,33.08000000000004,46,20,3.09,BZ,2023-04-18
316,kyren,51.6828,102.1408,-8.129999999999995,76,76,1.2,RU,2023-04-18
317,ujae,8.9322,165.7642,27.310000000000002,78,93,7.9,MH,2023-04-18
318,bonga,7.2833,36.2333,15.980000000000018,99,100,1.0,ET,2023-04-18
319,belogradchik,43.6272,22.6836,8.410000000000025,96,100,1.14,BG,2023-04-18
320,noshiro,40.2039,140.0242,11.460000000000036,83,69,6.21,JP,2023-04-18
321,itoman,26.1247,127.6694,24.430000000000007,88,75,9.77,JP,2023-04-18
322,salinopolis,-0.6136,-47.3561,25.08000000000004,89,100,2.84,BR,2023-04-18
323,demba,-5.51,22.2667,19.810000000000002,98,96,1.34,CD,2023-04-18
324,osceola,28.042,-81.1242,25.0,42,0,4.75,US,2023-04-18
325,portland,45.5234,-122.6762,10.910000000000025,73,75,6.26,US,2023-04-18
326,kapa'a,22.0752,-159.319,23.390000000000043,89,100,6.69,US,2023-04-18
327,williamson,30.6502,-97.6003,25.960000000000036,57,100,6.69,US,2023-04-18
328,suseni,46.6667,25.55,4.4500000000000455,87,100,1.24,RO,2023-04-18
329,nadi,-17.8,177.4167,29.0,79,75,3.09,FJ,2023-04-18
330,strezhevoy,60.7333,77.5889,-11.919999999999959,96,100,4.31,RU,2023-04-18
331,castlegar,49.2998,-117.6689,4.980000000000018,83,100,2.05,CA,2023-04-18
332,odiongan,12.4017,121.9919,27.390000000000043,81,75,2.55,PH,2023-04-18
333,yelizovo,53.1873,158.3805,3.080000000000041,80,75,5.0,RU,2023-04-18
334,nagqu,31.5,92.0,1.990000000000009,54,92,2.7,CN,2023-04-18
335,ambodifotatra,-16.9833,49.85,25.950000000000045,83,12,6.15,MG,2023-04-18
336,turbat,26.0023,63.044,24.629999999999995,45,100,0.96,PK,2023-04-18
337,wuwei,37.9281,102.6414,11.970000000000027,37,69,5.24,CN,2023-04-18
338,margate,51.3813,1.3862,9.939999999999998,87,86,2.24,GB,2023-04-18
339,opuwo,-18.0607,13.84,19.49000000000001,57,16,1.35,NA,2023-04-18
340,ancud,-41.8697,-73.8203,12.420000000000016,93,100,2.7,CL,2023-04-18
341,galveston,29.3669,-94.9669,26.140000000000043,72,0,7.72,US,2023-04-18
342,klaksvik,62.2266,-6.589,7.510000000000048,87,76,7.04,FO,2023-04-18
343,liwale,-9.7667,37.9333,19.470000000000027,99,96,1.84,TZ,2023-04-18
344,kulim,5.365,100.5618,26.74000000000001,89,79,1.35,MY,2023-04-18
345,marat,25.0701,45.4615,21.590000000000032,58,100,5.69,SA,2023-04-18
346,acarau,-2.8856,-40.12,26.03000000000003,83,90,3.73,BR,2023-04-18
347,glubokoye,50.1456,82.3114,1.8600000000000136,60,100,6.0,KZ,2023-04-18
348,yaren,-0.5472,166.916,28.160000000000025,76,21,4.27,NR,2023-04-18
349,east london,-33.0153,27.9116,19.439999999999998,82,0,2.35,ZA,2023-04-18
350,kas,36.2018,29.6377,16.27000000000004,64,0,3.06,TR,2023-04-18
351,tanumah,27.1,44.1333,22.590000000000032,58,99,3.99,SA,2023-04-18
352,thomazeau,18.6519,-72.0947,28.99000000000001,78,56,1.32,HT,2023-04-18
353,skhirate,33.8498,-7.0404,18.510000000000048,93,84,1.79,MA,2023-04-18
354,guerrero negro,27.9769,-114.0611,16.730000000000018,63,100,9.69,MX,2023-04-18
355,aleksandrovskoye,44.7142,43.0008,5.9500000000000455,91,94,3.9,RU,2023-04-18
356,persembe,41.0656,37.7714,13.680000000000007,74,80,3.3,TR,2023-04-18
357,dampit,-8.2116,112.7493,21.390000000000043,95,84,1.23,ID,2023-04-18
358,melong,5.1218,9.9614,20.77000000000004,92,74,0.75,CM,2023-04-18
359,zheleznogorsk,52.331,35.3711,7.330000000000041,70,100,3.55,RU,2023-04-18
360,twin falls,42.3505,-114.6445,3.9399999999999977,38,100,12.86,US,2023-04-18
361,zaozersk,69.4005,32.4476,2.0500000000000114,90,100,9.31,RU,2023-04-18
362,nago,26.5881,127.9761,24.470000000000027,88,76,7.12,JP,2023-04-18
363,shchuchinsk,52.9333,70.2,-4.1200000000000045,96,40,0.95,KZ,2023-04-18
364,janakpur,26.7183,85.9065,27.590000000000032,19,0,1.59,NP,2023-04-18
365,penzance,50.1186,-5.5371,9.379999999999995,84,69,8.33,GB,2023-04-18
366,ati,13.2154,18.3353,32.650000000000034,16,41,3.23,TD,2023-04-18
367,extrema,-22.8547,-46.3183,19.33000000000004,97,100,4.07,BR,2023-04-18
368,valdivia,-39.8142,-73.2459,13.050000000000011,99,100,0.95,CL,2023-04-18
369,alofi,-19.0595,-169.9187,25.939999999999998,89,100,2.57,NU,2023-04-18
370,camias,15.1736,120.9651,28.79000000000002,80,19,1.29,PH,2023-04-18
371,stranraer,54.9023,-5.0273,7.740000000000009,64,1,8.03,GB,2023-04-18
372,lethem,3.3803,-59.7968,26.220000000000027,71,99,1.2,GY,2023-04-18
373,happy valley-goose bay,53.3168,-60.3315,5.170000000000016,60,100,2.06,CA,2023-04-18
374,berezovo,63.9381,65.0419,-9.419999999999959,92,85,3.16,RU,2023-04-18
375,posto fiscal rolim de moura,-13.0833,-62.2667,25.160000000000025,85,89,0.85,BR,2023-04-18
376,mahibadhoo,3.7833,72.9667,28.400000000000034,72,87,0.65,MV,2023-04-18
377,letlhakane,-21.4167,25.5833,17.54000000000002,38,0,3.57,BW,2023-04-18
378,remire-montjoly,4.9167,-52.2667,24.02000000000004,94,40,0.0,GF,2023-04-18
379,codajas,-3.8367,-62.0569,24.120000000000005,96,94,1.36,BR,2023-04-18
380,yorkton,51.2167,-102.4677,0.910000000000025,80,100,9.26,CA,2023-04-18
381,lazaro cardenas,17.9583,-102.2,28.5,60,18,4.46,MX,2023-04-18
382,i-n-salah,27.1935,2.4607,28.100000000000023,9,26,4.53,DZ,2023-04-18
383,tongouson,5.0214,120.1328,28.53000000000003,73,16,2.26,PH,2023-04-18
384,pokrovsk,48.282,37.1758,9.460000000000036,79,100,4.58,UA,2023-04-18
385,dhidhdhoo,6.8833,73.1,28.24000000000001,72,48,1.59,MV,2023-04-18
386,wilmington island,32.0036,-80.9737,21.05000000000001,46,0,3.6,US,2023-04-18
387,brzeg dolny,51.273,16.7082,11.0,82,100,4.02,PL,2023-04-18
388,sabirabad,40.0095,48.4752,8.25,83,13,1.53,AZ,2023-04-18
389,lajinha,-20.1514,-41.6228,22.370000000000005,82,51,0.09,BR,2023-04-18
390,sursk,53.0754,45.6846,7.78000000000003,54,100,1.55,RU,2023-04-18
391,manaure,11.7751,-72.4445,27.58000000000004,67,17,5.54,CO,2023-04-18
392,belyy yar,53.6039,91.3903,-10.060000000000002,62,0,4.0,RU,2023-04-18
393,dawson creek,55.7666,-120.2362,11.430000000000007,20,40,5.66,CA,2023-04-18
394,bamboo flat,11.7,92.7167,27.220000000000027,84,87,2.87,IN,2023-04-18
395,grave,51.759,5.7388,10.080000000000041,76,75,4.63,NL,2023-04-18
396,villamontes,-21.25,-63.5,18.730000000000018,93,100,1.36,BO,2023-04-18
397,papa,47.33,17.4674,7.960000000000036,100,97,1.03,HU,2023-04-18
398,novo aripuana,-5.1206,-60.3797,24.150000000000034,97,97,1.06,BR,2023-04-18
399,iquique,-20.2208,-70.1431,21.02000000000004,81,44,3.33,CL,2023-04-18
400,sidney,-33.8679,151.2073,20.75,73,40,3.09,AU,2023-04-18
401,carinhanha,-14.3047,-43.765,28.700000000000045,43,72,2.2,BR,2023-04-18
402,velikiy ustyug,60.7644,46.3106,-0.01999999999998181,95,1,2.3,RU,2023-04-18
403,papao,-17.75,-149.55,29.82000000000005,75,29,7.15,PF,2023-04-18
404,pran buri,12.3847,99.9098,28.010000000000048,84,84,2.22,TH,2023-04-18
405,muisne,0.6,-80.0333,26.74000000000001,81,79,2.17,EC,2023-04-18
406,taro,-8.3862,115.28,22.0,91,55,0.41,ID,2023-04-18
407,xining,36.6167,101.7667,11.930000000000007,34,1,1.08,CN,2023-04-18
408,port blair,11.6667,92.75,27.189999999999998,84,88,2.99,IN,2023-04-18
409,tondano,1.3038,124.9112,23.05000000000001,75,33,0.02,ID,2023-04-18
410,kochubey,44.3861,46.5825,9.82000000000005,62,72,8.36,RU,2023-04-18
411,luderitz,-26.6481,15.1594,19.52000000000004,50,0,0.6,NA,2023-04-18
412,belem de sao francisco,-8.7539,-38.9658,27.510000000000048,60,100,5.22,BR,2023-04-18
413,rengasdengklok,-6.1592,107.2981,26.07000000000005,89,100,1.96,ID,2023-04-18
414,zhanaozen,43.3,52.8,8.730000000000018,24,22,8.5,KZ,2023-04-18
415,hami,42.8,93.45,7.850000000000023,17,100,12.82,CN,2023-04-18
416,burang,30.25,81.1667,-2.1299999999999955,90,71,0.63,CN,2023-04-18
417,berezanskaya,45.7056,39.5932,10.160000000000025,83,80,4.57,RU,2023-04-18
418,hantsavichy,52.758,26.43,8.560000000000002,81,100,3.09,BY,2023-04-18
419,vologda,59.2187,39.8886,2.9700000000000273,96,22,2.47,RU,2023-04-18
420,plettenberg bay,-34.0527,23.3716,16.28000000000003,85,19,0.91,ZA,2023-04-18
421,rio grande,-32.035,-52.0986,18.060000000000002,36,68,8.35,BR,2023-04-18
422,bengkulu,-3.8004,102.2655,24.410000000000025,89,90,1.68,ID,2023-04-18
423,oshawa,43.9001,-78.8496,3.7100000000000364,75,100,5.66,CA,2023-04-18
424,san antonio de pale,-1.4014,5.6325,28.340000000000032,79,86,5.84,GQ,2023-04-18
425,sittwe,20.15,92.9,27.189999999999998,87,12,0.62,MM,2023-04-18
426,kuruman,-27.4524,23.4325,13.879999999999995,29,0,2.16,ZA,2023-04-18
427,taungoo,18.9333,96.4333,25.430000000000007,71,0,1.62,MM,2023-04-18
428,richards bay,-28.783,32.0377,18.600000000000023,86,0,3.62,ZA,2023-04-18
429,melfort,52.8667,-104.6177,0.07000000000005002,93,100,4.63,CA,2023-04-18
430,kailua-kona,19.6406,-155.9956,28.060000000000002,67,75,3.6,US,2023-04-18
431,san luis,-33.295,-66.3356,12.840000000000032,34,73,0.41,AR,2023-04-18
432,midvagur,62.0511,-7.1939,7.460000000000036,93,56,4.12,FO,2023-04-18
433,chonchi,-42.6128,-73.8092,12.840000000000032,98,100,0.8,CL,2023-04-18
434,mil'kovo,55.6078,37.7956,10.110000000000014,76,90,3.11,RU,2023-04-18
435,yarmouth,41.7057,-70.2286,12.03000000000003,61,75,6.69,US,2023-04-18
436,gurupi,-11.7292,-49.0686,25.99000000000001,77,83,1.87,BR,2023-04-18
437,bu'aale,1.0833,42.5833,25.689999999999998,83,85,2.69,SO,2023-04-18
438,saint-pierre,-21.3393,55.4781,24.200000000000045,78,4,3.6,RE,2023-04-18
439,necochea,-38.5473,-58.7368,13.910000000000025,63,99,6.16,AR,2023-04-18
440,novosergiyevka,52.0934,53.6528,7.260000000000048,59,100,2.34,RU,2023-04-18
441,port augusta,-32.5,137.7667,16.610000000000014,58,84,7.75,AU,2023-04-18
442,pandan,14.0453,124.1694,27.57000000000005,77,82,4.94,PH,2023-04-18
443,ulsan,35.5372,129.3167,19.340000000000032,75,61,1.26,KR,2023-04-18
444,lib,8.3122,167.3766,27.340000000000032,80,100,7.89,MH,2023-04-18
445,arhribs,36.7936,4.3116,12.980000000000018,74,4,8.66,DZ,2023-04-18
446,de aar,-30.6497,24.0123,17.55000000000001,30,0,3.0,ZA,2023-04-18
447,port macquarie,-31.4333,152.9167,21.610000000000014,60,94,0.63,AU,2023-04-18
448,salekhard,66.53,66.6019,-13.689999999999998,77,31,3.11,RU,2023-04-18
449,marsh harbour,26.5412,-77.0636,23.54000000000002,74,69,7.1,BS,2023-04-18
450,rechka-vydrino,51.485,104.8461,-7.2999999999999545,80,80,2.61,RU,2023-04-18
451,clarksville,36.5298,-87.3595,27.100000000000023,22,0,5.14,US,2023-04-18
452,kolonia town,6.964,158.206,28.060000000000002,89,100,5.14,FM,2023-04-18
453,laminusa,5.5549,120.9136,28.58000000000004,73,26,2.66,PH,2023-04-18
454,ebon,4.582,168.6964,27.74000000000001,80,87,6.5,MH,2023-04-18
455,trincomalee,8.5711,81.2335,22.960000000000036,96,24,1.37,LK,2023-04-18
456,tortoli,39.9256,9.6572,10.900000000000034,87,0,3.6,IT,2023-04-18
457,tyukhtet,56.5389,89.3011,-10.120000000000005,92,100,2.78,RU,2023-04-18
458,inhambane,-23.865,35.3833,19.170000000000016,91,73,1.1,MZ,2023-04-18
459,sombrerete,23.6333,-103.65,23.49000000000001,14,32,9.22,MX,2023-04-18
460,kichmengskiy gorodok,59.9816,45.7854,1.2700000000000387,91,19,2.32,RU,2023-04-18
461,arno,60.1167,18.6333,3.7700000000000387,95,12,3.45,SE,2023-04-18
462,forte dei marmi,43.9648,10.1724,13.870000000000005,63,67,1.92,IT,2023-04-18
463,cidreira,-30.1811,-50.2056,15.670000000000016,74,43,2.02,BR,2023-04-18
464,sampang,-7.1872,113.2394,26.5,88,80,1.44,ID,2023-04-18
465,guichen,47.9676,-1.7953,8.730000000000018,92,0,3.6,FR,2023-04-18
466,bengbu,32.9408,117.3608,17.930000000000007,83,67,3.53,CN,2023-04-18
467,conde,-7.2597,-34.9075,26.700000000000045,89,20,0.0,BR,2023-04-18
468,san jose de jachal,-30.2406,-68.7469,15.800000000000011,31,9,0.53,AR,2023-04-18
469,tchollire,8.4022,14.1698,31.25,30,92,1.58,CM,2023-04-18
470,trujillo,-8.116,-79.03,26.980000000000018,78,69,5.14,PE,2023-04-18
471,cill airne,52.05,-9.5167,6.300000000000011,91,1,2.77,IE,2023-04-18
472,vallegrande,-18.4897,-64.1069,14.939999999999998,97,84,1.39,BO,2023-04-18
473,egilsstadir,65.2653,-14.3948,7.9500000000000455,81,75,1.54,IS,2023-04-18
474,mandali,33.7499,45.5541,23.230000000000018,33,2,2.56,IQ,2023-04-18
475,isangel,-19.55,169.2667,30.060000000000002,74,75,4.63,VU,2023-04-18
476,mazagao,-0.115,-51.2894,25.03000000000003,98,100,1.12,BR,2023-04-18
477,kerikeri,-35.2268,173.9474,21.060000000000002,96,84,1.34,NZ,2023-04-18
478,ulanhot,46.0833,122.0833,7.760000000000048,18,100,3.23,CN,2023-04-18
479,bloemfontein,-29.1211,26.214,7.710000000000036,87,0,0.51,ZA,2023-04-18
480,bandon,51.7469,-8.7425,8.770000000000039,94,3,3.39,IE,2023-04-18
481,ixtapa,20.7,-105.2,26.57000000000005,69,75,7.2,MX,2023-04-18
482,pula,44.8683,13.8481,14.310000000000002,62,0,5.14,HR,2023-04-18
483,wenchang,30.904,118.4887,22.05000000000001,82,100,3.71,CN,2023-04-18
484,maceio,-9.6658,-35.7353,25.689999999999998,94,20,2.57,BR,2023-04-18
485,pueblo nuevo,23.3833,-105.3833,20.360000000000014,25,74,3.35,MX,2023-04-18
486,gannan,47.9147,123.5031,7.090000000000032,45,69,5.48,CN,2023-04-18
487,alice springs,-23.7,133.8833,13.75,77,73,2.57,AU,2023-04-18
488,karachi,24.9056,67.0822,26.900000000000034,61,40,3.6,PK,2023-04-18
489,tangalle,6.024,80.7911,24.090000000000032,92,29,0.93,LK,2023-04-18
490,derbent,42.0678,48.2899,9.760000000000048,84,42,7.58,RU,2023-04-18
491,ampanihy,-24.7,44.75,20.439999999999998,90,19,3.08,MG,2023-04-18
492,dauphin,51.1494,-100.0502,5.080000000000041,36,100,4.63,CA,2023-04-18
493,taseyevo,57.2169,94.8978,-10.419999999999959,84,100,5.66,RU,2023-04-18
494,tekeli,44.83,78.8239,-5.229999999999961,66,4,2.47,KZ,2023-04-18
495,chul'man,56.8479,124.9104,-7.849999999999966,88,78,0.65,RU,2023-04-18
496,huotong,26.8497,119.4181,21.99000000000001,98,100,1.02,CN,2023-04-18
497,gazli,40.1333,63.45,8.640000000000043,31,25,6.65,UZ,2023-04-18
498,antsiranana,-12.2787,49.2917,25.02000000000004,81,14,5.49,MG,2023-04-18
499,porto novo,6.4965,2.6036,29.900000000000034,80,94,1.74,BJ,2023-04-18
500,itai,-23.4178,-49.0906,20.28000000000003,97,100,3.16,BR,2023-04-18
501,bria,6.5423,21.9863,22.78000000000003,83,99,1.52,CF,2023-04-18
502,robertsport,6.7533,-11.3686,26.80000000000001,83,25,1.3,LR,2023-04-18
503,acajutla,13.5928,-89.8275,29.150000000000034,62,81,3.1,SV,2023-04-18
504,antofagasta,-23.65,-70.4,17.600000000000023,80,50,5.49,CL,2023-04-18
505,fisterra,42.9049,-9.2629,14.450000000000045,81,69,6.79,ES,2023-04-18
506,eisen,36.8217,128.6308,17.960000000000036,54,25,1.22,KR,2023-04-18
507,bijapur,16.8333,75.7,28.52000000000004,30,3,0.71,IN,2023-04-18
508,itapirapua,-15.8233,-50.6133,24.860000000000014,77,99,1.18,BR,2023-04-18
509,abepura,-2.6333,140.5833,27.450000000000045,74,20,1.03,ID,2023-04-18
510,belmonte,-15.8631,-38.8828,25.760000000000048,86,16,2.74,BR,2023-04-18
511,bandar lampung,-5.4254,105.258,24.57000000000005,90,55,1.21,ID,2023-04-18
512,kitimat,54.0524,-128.6534,8.28000000000003,65,97,0.6,CA,2023-04-18
513,nema,57.5067,50.5011,4.830000000000041,85,99,3.33,RU,2023-04-18
514,tazacorte,28.629,-17.9293,18.54000000000002,81,0,2.24,ES,2023-04-18
515,tommot,58.9564,126.2925,-4.359999999999957,80,59,2.37,RU,2023-04-18
516,xiva,41.3783,60.3639,3.990000000000009,21,4,5.07,UZ,2023-04-18
517,katoomba,-33.7198,150.3074,14.480000000000018,51,82,0.33,AU,2023-04-18
518,barinitas,8.7622,-70.4111,24.670000000000016,94,99,1.44,VE,2023-04-18
519,minot air force base,48.4209,-101.3391,7.100000000000023,43,100,10.29,US,2023-04-18
520,karratha,-20.7377,116.8463,25.590000000000032,47,5,10.62,AU,2023-04-18
521,terekli-mekteb,44.1671,45.8698,7.82000000000005,76,92,5.07,RU,2023-04-18
522,wanxian,30.8039,108.3897,23.83000000000004,87,69,0.83,CN,2023-04-18
523,ohara,35.25,140.3833,20.870000000000005,64,31,3.74,JP,2023-04-18
524,ataq,14.5377,46.8319,21.32000000000005,51,1,4.49,YE,2023-04-18
525,puerto san jose,13.9256,-90.8244,30.55000000000001,53,45,3.38,GT,2023-04-18
526,nhamunda,-2.1861,-56.7131,23.53000000000003,98,100,1.23,BR,2023-04-18
527,pangody,65.85,74.4859,-12.839999999999975,92,100,4.88,RU,2023-04-18
528,mandera,3.9366,41.867,26.78000000000003,71,49,2.34,KE,2023-04-18
529,lycksele,64.5954,18.6735,-1.0699999999999932,86,100,0.0,SE,2023-04-18
530,yacuiba,-22.038,-63.6797,16.660000000000025,97,84,0.77,BO,2023-04-18
531,kristiansund,63.1115,7.732,7.360000000000014,65,91,1.54,NO,2023-04-18
532,vilyuysk,63.7553,121.6247,-3.319999999999993,93,99,2.76,RU,2023-04-18
533,ocean shores,46.9737,-124.1563,8.900000000000034,86,100,4.47,US,2023-04-18
534,nar'yan-mar,67.6713,53.087,-11.229999999999961,100,77,3.29,RU,2023-04-18
535,meknes,33.9776,-5.525,22.49000000000001,49,40,3.6,MA,2023-04-18
536,el matama,16.7095,33.3565,28.140000000000043,8,23,5.45,SD,2023-04-18
537,la passe,45.5549,-0.8967,11.129999999999995,94,5,3.7,FR,2023-04-18
538,boli,45.7667,130.5167,8.870000000000005,56,35,3.51,CN,2023-04-18
539,heroica caborca,30.7167,-112.15,26.49000000000001,19,57,5.56,MX,2023-04-18
540,karkkila,60.5342,24.2098,5.100000000000023,75,99,4.34,FI,2023-04-18
541,rongelap,11.1635,166.8941,26.78000000000003,80,99,9.93,MH,2023-04-18
542,lagdo,9.05,13.7333,32.94,30,97,2.51,CM,2023-04-18
543,karagandy,49.8019,73.1021,0.9700000000000273,97,95,4.85,KZ,2023-04-18
544,sarnen,46.8985,8.2507,10.82000000000005,75,75,4.63,CH,2023-04-18
545,palu,-0.8917,119.8707,28.260000000000048,71,100,1.3,ID,2023-04-18
546,udaipur,24.5712,73.6918,24.670000000000016,31,18,3.07,IN,2023-04-18
547,hilo,19.7297,-155.09,27.850000000000023,70,0,8.75,US,2023-04-18
548,gadzhiyevo,69.2551,33.3362,2.490000000000009,89,100,10.51,RU,2023-04-18
549,roswell,34.0232,-84.3616,25.879999999999995,31,0,3.09,US,2023-04-18
550,mombetsu,44.3525,143.3525,4.07000000000005,80,100,1.57,JP,2023-04-18
551,patacamaya,-17.2333,-67.9167,10.770000000000039,47,2,0.03,BO,2023-04-18
552,nova vicosa,-17.8919,-39.3719,26.150000000000034,86,41,6.26,BR,2023-04-18
553,kolondieba,11.0882,-6.8926,30.77000000000004,10,47,1.88,ML,2023-04-18
554,marennes,45.8228,-1.1055,10.53000000000003,82,2,7.38,FR,2023-04-18
555,essaouira,31.5125,-9.77,17.74000000000001,88,82,2.45,MA,2023-04-18
556,lorengau,-2.0226,147.2712,28.970000000000027,74,99,3.3,PG,2023-04-18
557,peterhead,57.5058,-1.7981,6.220000000000027,81,32,4.55,GB,2023-04-18
558,tataouine,32.9297,10.4518,17.0,46,1,4.1,TN,2023-04-18
559,changping,40.2186,116.2197,12.800000000000011,43,24,1.39,CN,2023-04-18
560,port alberni,49.2413,-124.8028,7.910000000000025,88,100,4.02,CA,2023-04-18
561,bubaque,11.2833,-15.8333,25.52000000000004,74,97,9.44,GW,2023-04-18
562,bantogon,6.5333,124.0333,27.970000000000027,70,14,0.17,PH,2023-04-18
563,rensselaer,42.7168,-73.4829,6.78000000000003,65,100,3.42,US,2023-04-18
564,dungarpur,23.8333,73.7167,26.950000000000045,32,43,3.4,IN,2023-04-18
565,catia la mar,10.6038,-67.0303,30.110000000000014,70,40,3.09,VE,2023-04-18
566,leticia,-4.2153,-69.9406,28.03000000000003,83,40,2.06,CO,2023-04-18
567,padang,-0.9492,100.3543,24.03000000000003,88,100,1.3,ID,2023-04-18
568,pechora,65.1472,57.2244,-1.5,81,59,3.58,RU,2023-04-18
569,fukuecho,32.6881,128.8419,19.200000000000045,100,75,5.14,JP,2023-04-18
570,palikir - national government center,6.9248,158.1611,27.470000000000027,89,100,5.14,FM,2023-04-18
571,monterey,36.2505,-121.2516,15.100000000000023,36,91,6.62,US,2023-04-18
